[{"vpn_status":"up","status":{"created_at":"03.08.2013 16:10"},"node":{"id":8,"mac":"b0487aaeec16","mac_dec":193825342417942,"fw_version":"1.0"},"node_registration":{"id":5,"latitude":50.4749,"longitude":6.57659,"name":"egeist-01","operator_name":"eGeist","operator_email":"bdbfpq@zboybolk.kbq","loc_str":"53947 Nettesheim-Marmagen","osm_loc":"53947 Nettesheim-Marmagen","created_at":"2012-05-31T20:47:43+02:00","updated_at":"2013-06-06T11:35:39+02:00"}},{"vpn_status":"up","status":{"created_at":"15.08.2013 11:02"},"node":{"id":9,"mac":"b0487abed4fa","mac_dec":193825343460602,"fw_version":"1.0"},"node_registration":{"id":22,"latitude":50.9647,"longitude":6.94524,"name":"freifunk-stw60-node1","operator_name":"asystec IT-Beratung","operator_email":"cobfcrkh@xpvpqbz.kbq","loc_str":"Stellwerk 60, Autofreie Siedlung, K\u00f6ln-Nippes","osm_loc":"Stellwerk 60, Autofreie Siedlung, K\u00f6ln-Nippes","created_at":"2012-09-23T09:02:22+02:00","updated_at":"2013-04-14T15:24:45+02:00"}},{"vpn_status":"up","status":{"created_at":"01.08.2013 07:50"},"node":{"id":12,"mac":"b0487ac5de46","mac_dec":193825343921734,"fw_version":"1.0"},"node_registration":{"id":16,"latitude":50.7396,"longitude":7.09647,"name":"Nela","operator_name":"Netzladen","operator_email":"fkcl@hyr.cobfcrkh.kbq","loc_str":"Netzladen","osm_loc":"Netzladen","created_at":"2012-07-05T22:12:05+02:00","updated_at":"2013-04-07T12:15:50+02:00"}},{"vpn_status":"up","status":{"created_at":"14.08.2013 15:50"},"node":{"id":263,"mac":"647002df60d2","mac_dec":110432247308498,"fw_version":"1.0"},"node_registration":{"id":111,"latitude":50.7223,"longitude":7.0884,"name":"extra-dry","operator_name":"Extra Dry, Bonn-Poppelsdorf","operator_email":"cobfcrkh@zlzlxkrqp.lod","loc_str":"Extra-Dry, Clemens-August-Str. 46","osm_loc":"Clemens-August-Str. 46","created_at":"2013-08-08T03:17:25+02:00","updated_at":"2013-08-14T16:16:27+02:00"}},{"vpn_status":"up","status":{"created_at":"01.08.2013 07:10"},"node":{"id":14,"mac":"f8d111883fea","mac_dec":273576825995242,"fw_version":"1.0"},"node_registration":{"id":2,"latitude":50.9504,"longitude":6.91296,"name":"C4-1","operator_name":"Freifunk-KBU Team","operator_email":"fkcl@hyr.cobfcrkh.kbq","loc_str":"Chaos Computer Club Cologne, 6a, Heliosstra\u00dfe, Ehrenfeld, K\u00f6ln, Regierungsbezirk K\u00f6ln, Nordrhein-Westfalen, 50825, Deutschland","osm_loc":"Chaos Computer Club Cologne, 6a, Heliosstra\u00dfe, Ehrenfeld, K\u00f6ln, Regierungsbezirk K\u00f6ln, Nordrhein-Westfalen, 50825, Deutschland","created_at":"2012-05-30T14:48:22+02:00","updated_at":"2012-05-30T15:01:25+02:00"}},{"vpn_status":"up","status":{"created_at":"18.08.2013 23:26"},"node":{"id":15,"mac":"d85d4cae420c","mac_dec":237895230046732,"fw_version":"1.0"},"node_registration":{"id":4,"latitude":50.7262,"longitude":7.08067,"name":"Krikkit","operator_name":"meise","operator_email":"cc+hyr@3pq.yb","loc_str":"Ostwaldstra\u00dfe, Endenich, Stadtbezirk Bonn, Bonn Endenich, Bonn, Regierungsbezirk K\u00f6ln, Nordrhein-Westfalen, 53115, Bundesrepublik Deutschland (Landmasse)","osm_loc":"Ostwaldstra\u00dfe, Endenich, Stadtbezirk Bonn, Bonn Endenich, Bonn, Regierungsbezirk K\u00f6ln, Nordrhein-Westfalen, 53115, Bundesrepublik Deutschland (Landmasse)","created_at":"2012-05-30T16:30:20+02:00","updated_at":"2012-11-30T12:03:54+01:00"}},{"vpn_status":"up","status":{"created_at":"03.08.2013 03:55"},"node":{"id":262,"mac":"a0f3c1b3b7f2","mac_dec":176968787277810,"fw_version":"1.0"},"node_registration":{"id":108,"latitude":50.8222,"longitude":6.97564,"name":"freinode01","operator_name":"nodemaster","operator_email":"cobfcrkh@hlppfk.fkcl","loc_str":"K\u00f6cherweg 19, 50389 Wesseling","osm_loc":"Wesseling, K\u00f6cherweg 19","created_at":"2013-08-02T16:32:02+02:00","updated_at":"2013-08-02T17:08:52+02:00"}},{"vpn_status":"up","status":{"created_at":"17.08.2013 17:32"},"node":{"id":20,"mac":"b0487ac5dde8","mac_dec":193825343921640,"fw_version":"1.0"},"node_registration":{"id":8,"latitude":50.5282,"longitude":6.5492,"name":"roeles-01","operator_name":"Roland H. Roeles","operator_email":"bdbfpq@zboybolk.kbq","loc_str":"","osm_loc":"","created_at":"2012-06-09T17:03:58+02:00","updated_at":"2013-06-06T11:10:32+02:00"}},{"vpn_status":"up","status":{"created_at":"14.08.2013 11:02"},"node":{"id":21,"mac":"0023cd18f274","mac_dec":153764819572,"fw_version":"1.0"},"node_registration":{"id":14,"latitude":50.7411,"longitude":7.08853,"name":"bibo","operator_name":"g3ntleman","operator_email":"cobfcrkh@zlzlxkrqp.lod","loc_str":"Kaiser-Karl-Ring / Dorotheenstra\u00dfe, 53111 Bonn","osm_loc":"Kaiser-Karl-Ring / Dorotheenstra\u00dfe, 53111 Bonn","created_at":"2012-06-17T13:18:46+02:00","updated_at":"2013-04-05T14:27:30+02:00"}},{"vpn_status":"up","status":{"created_at":"19.08.2013 12:03"},"node":{"id":201,"mac":"647002cd972e","mac_dec":110432246142766,"fw_version":"1.0"},"node_registration":{"id":106,"latitude":50.7295,"longitude":7.07049,"name":"boldsuck","operator_name":"boldsuck","operator_email":"cobfcrkh@yliaprzh.ab","loc_str":"Steinweg 18-20, Bonn-Endenich","osm_loc":"Steinweg 18/20, 53121 Bonn","created_at":"2013-07-22T00:13:37+02:00","updated_at":"2013-08-18T13:29:33+02:00"}},{"vpn_status":"up","status":{"created_at":"04.08.2013 17:06"},"node":{"id":195,"mac":"647002a9290c","mac_dec":110432243755276,"fw_version":"1.0"},"node_registration":{"id":100,"latitude":50.9725,"longitude":7.07851,"name":"ernie","operator_name":"g3ntleman","operator_email":"cobfcrkh@zlzlxkrqp.lod","loc_str":"Gemarkenstr. / Strundener Str.","osm_loc":"Gemarkenstr","created_at":"2013-07-11T11:59:28+02:00","updated_at":"2013-07-11T11:59:28+02:00"}},{"vpn_status":"up","status":{"created_at":"11.08.2013 11:54"},"node":{"id":26,"mac":"f8d111884490","mac_dec":273576825996432,"fw_version":"1.0"},"node_registration":{"id":17,"latitude":50.4927,"longitude":6.63071,"name":"postbeutel-02","operator_name":"eGeist","operator_email":"bdbfpq@zboybolk.kbq","loc_str":"Bahnhofstr.10 * 53947 Nettersheim","osm_loc":"","created_at":"2012-07-27T19:02:29+02:00","updated_at":"2013-06-10T00:02:58+02:00"}},{"vpn_status":"up","status":{"created_at":"10.08.2013 11:51"},"node":{"id":29,"mac":"f8d1113aac2c","mac_dec":273576820911148,"fw_version":"1.0"},"node_registration":{"id":19,"latitude":50.7036,"longitude":7.11242,"name":"Q1","operator_name":"dschuwa","operator_email":"apzertx@djxfiALQ.zlj","loc_str":"Quirinstra\u00dfe 6-8, Bonn","osm_loc":"Quirinstra\u00dfe 6-8, Bonn","created_at":"2012-08-21T18:27:17+02:00","updated_at":"2013-01-02T19:15:20+01:00"}},{"vpn_status":"up","status":{"created_at":"01.08.2013 07:29"},"node":{"id":191,"mac":"647002be6bd6","mac_dec":110432245148630,"fw_version":"1.0"},"node_registration":{"id":95,"latitude":50.6621,"longitude":7.18939,"name":"Mooswiese","operator_name":"Peter Amendt","operator_email":"mbqbo_xjbkaq@dju.ab","loc_str":"Ackerstra\u00dfe 15, 53179 Bonn","osm_loc":"Ackerstra\u00dfe 15, 53179 Bonn","created_at":"2013-07-07T22:57:43+02:00","updated_at":"2013-07-07T22:57:43+02:00"}},{"vpn_status":"up","status":{"created_at":"17.08.2013 11:37"},"node":{"id":32,"mac":"f8d111a9d206","mac_dec":273576828195334,"fw_version":"1.0"},"node_registration":{"id":21,"latitude":50.6521,"longitude":6.82309,"name":"marend","operator_name":"Markus Arend","operator_email":"j.xobka@rkfqvylu.ab","loc_str":"Kuchenheimer str. 47, Euskirchen","osm_loc":"Kuchenheimer str. 47, Euskirchen","created_at":"2012-09-15T00:40:01+02:00","updated_at":"2013-07-21T15:49:12+02:00"}},{"vpn_status":"up","status":{"created_at":"18.08.2013 03:49"},"node":{"id":189,"mac":"647002b3a18e","mac_dec":110432244441486,"fw_version":"1.0"},"node_registration":{"id":94,"latitude":50.6689,"longitude":7.16894,"name":"Lannesdorf 1","operator_name":"Peter Amendt","operator_email":"mbqbo_xjbkaq@dju.ab","loc_str":"Paracelsusstra\u00dfe 42, 53177 Bonn","osm_loc":"Paracelsusstra\u00dfe 42, 53177 Bonn","created_at":"2013-07-07T22:32:03+02:00","updated_at":"2013-07-21T13:44:57+02:00"}},{"vpn_status":"up","status":{"created_at":"03.04.2013 13:09"},"node":{"id":36,"mac":"647002cb9ce0","mac_dec":110432246013152,"fw_version":"< 1.0"},"node_registration":{"id":25,"latitude":50.9647,"longitude":6.94578,"name":"freifunk-stw60-node2","operator_name":"asystec IT-Beratung","operator_email":"cobfcrkh@xpvpqbz.kbq","loc_str":"Stellwerk 60, Autofreie Siedlung, K\u00f6ln-Nippes","osm_loc":"Stellwerk 60, Autofreie Siedlung, K\u00f6ln-Nippes","created_at":"2012-12-03T23:47:37+01:00","updated_at":"2013-01-16T02:47:40+01:00"}},{"vpn_status":"up","status":{"created_at":"13.08.2013 08:40"},"node":{"id":37,"mac":"64700284ede8","mac_dec":110432241380840,"fw_version":"1.0"},"node_registration":{"id":38,"latitude":50.9648,"longitude":6.94487,"name":"freifunk-stw60-node3","operator_name":"asystec IT-Beratung","operator_email":"cobfcrkh@xpvpqbz.kbq","loc_str":"Stellwerk 60, Autofreie Siedlung, K\u00f6ln-Nippes","osm_loc":"Stellwerk 60, Autofreie Siedlung, K\u00f6ln-Nippes","created_at":"2013-01-20T12:51:03+01:00","updated_at":"2013-06-14T19:59:34+02:00"}},{"vpn_status":"up","status":{"created_at":"11.08.2013 15:25"},"node":{"id":38,"mac":"64700284e3b2","mac_dec":110432241378226,"fw_version":"1.0"},"node_registration":{"id":28,"latitude":50.8937,"longitude":6.91242,"name":"Kaleng-1","operator_name":"kaleng","operator_email":"hxibkd@wlel.zlj","loc_str":"Hahnenstra\u00dfe 19, H\u00fcrth","osm_loc":"Hahnenstra\u00dfe 19-5","created_at":"2012-12-25T12:44:59+01:00","updated_at":"2013-02-15T01:10:41+01:00"}},{"vpn_status":"up","status":{"created_at":"07.08.2013 00:57"},"node":{"id":185,"mac":"f81a67517e96","mac_dec":272792286232214,"fw_version":"1.0"},"node_registration":{"id":90,"latitude":50.9153,"longitude":6.70883,"name":"n1.utzer.kbu.freifunk.net","operator_name":"utzer","operator_email":"exy@fze.kbq","loc_str":"","osm_loc":"Rathausstrasse 1, 50169 Kerpen","created_at":"2013-07-05T16:37:32+02:00","updated_at":"2013-07-18T19:39:28+02:00"}},{"vpn_status":"up","status":{"created_at":"17.08.2013 03:55"},"node":{"id":178,"mac":"90f652f834b8","mac_dec":159387628352696,"fw_version":"1.0"},"node_registration":{"id":89,"latitude":50.7421,"longitude":7.09282,"name":"Johnny-2","operator_name":"Thomas Winter","operator_email":"glekkv.ybb@dju.ab","loc_str":"Adolfstra\u00dfe 106 53111 Bonn","osm_loc":"Adolfstra\u00dfe 106 53111 Bonn","created_at":"2013-06-16T08:55:04+02:00","updated_at":"2013-06-16T08:56:06+02:00"}},{"vpn_status":"up","status":{"created_at":"19.08.2013 07:01"},"node":{"id":49,"mac":"90f652f283b2","mac_dec":159387627979698,"fw_version":"1.1beta11"},"node_registration":{"id":33,"latitude":50.662,"longitude":7.19122,"name":"Johnny-1","operator_name":"Thomas Winter","operator_email":"glekkv.ybb@dju.ab","loc_str":"Mainzerstra\u00dfe 169b, 53179 Bonn","osm_loc":"mainzerstra\u00dfe 169b bonn","created_at":"2013-01-06T19:14:38+01:00","updated_at":"2013-06-16T08:50:51+02:00"}},{"vpn_status":"up","status":{"created_at":"19.08.2013 01:39"},"node":{"id":177,"mac":"647002f2303a","mac_dec":110432248541242,"fw_version":"1.0"},"node_registration":{"id":93,"latitude":50.6621,"longitude":7.1919,"name":"Fliegendes Spaghettimonster","operator_name":"Peter Amendt","operator_email":"mbqbo_xjbkaq@dju.ab","loc_str":"De-Breze-Stra\u00dfe 4, 53179 Bonn","osm_loc":"De-Breze-Stra\u00dfe 4, 53179 Bonn","created_at":"2013-07-07T12:53:27+02:00","updated_at":"2013-07-07T12:54:44+02:00"}},{"vpn_status":"up","status":{"created_at":"16.08.2013 15:56"},"node":{"id":52,"mac":"f8d11124ab0a","mac_dec":273576819469066,"fw_version":"1.0"},"node_registration":{"id":63,"latitude":50.727,"longitude":7.07386,"name":"InTheWestPossessedByTheEast","operator_name":"TheEassi","operator_email":"ollq@mlowww.ab","loc_str":"Endenich ","osm_loc":"Endenich","created_at":"2013-03-08T22:00:39+01:00","updated_at":"2013-03-08T22:00:39+01:00"}},{"vpn_status":"up","status":{"created_at":"15.08.2013 01:10"},"node":{"id":58,"mac":"a0f3c136ce44","mac_dec":176968779091524,"fw_version":"1.0"},"node_registration":{"id":37,"latitude":50.906,"longitude":6.95538,"name":"moritz-2","operator_name":"Moritz Ulrich","operator_email":"jlofqw+cc@qxok-sbaox.ab","loc_str":"Raderberger Str. 180L, 50968 K\u00f6ln","osm_loc":"Raderberger Str. 180L, 50968 K\u00f6ln","created_at":"2013-01-17T19:32:28+01:00","updated_at":"2013-03-28T16:00:53+01:00"}},{"vpn_status":"up","status":{"created_at":"07.08.2013 03:26"},"node":{"id":93,"mac":"54e6fcaf2bf4","mac_dec":93351058549748,"fw_version":"1.0"},"node_registration":{"id":56,"latitude":50.9699,"longitude":6.9007,"name":"Freier Funk","operator_name":"ak-\u00fcllef","operator_email":"xh-11@hlbik.zzz.ab","loc_str":"","osm_loc":"Masiusstr 33, 50827 K\u00f6ln","created_at":"2013-03-02T18:01:53+01:00","updated_at":"2013-03-02T21:27:23+01:00"}},{"vpn_status":"up","status":{"created_at":"08.08.2013 19:37"},"node":{"id":174,"mac":"f4ec38c9c32a","mac_dec":269295402205994,"fw_version":"1.0"},"node_registration":{"id":87,"latitude":50.9645,"longitude":6.94533,"name":"FlowNet","operator_name":"Flo","operator_email":"pjbvbo@kbqzlildkb.ab","loc_str":"Am Alten Stellwerk 42, 50733 K\u00f6ln","osm_loc":"Am Alten Stellwerk 42, 50733 K\u00f6ln","created_at":"2013-06-09T11:05:37+02:00","updated_at":"2013-06-09T13:13:17+02:00"}},{"vpn_status":"up","status":{"created_at":"19.08.2013 00:55"},"node":{"id":79,"mac":"f8d1119753a6","mac_dec":273576826983334,"fw_version":"1.0"},"node_registration":{"id":45,"latitude":50.727,"longitude":7.07386,"name":"marc","operator_name":"marc","operator_email":"i1j3o3a7bsbk@djxfi.zlj","loc_str":"Bonn-Endenich","osm_loc":"endenich","created_at":"2013-02-13T00:55:12+01:00","updated_at":"2013-02-13T00:55:43+01:00"}},{"vpn_status":"up","status":{"created_at":"08.08.2013 02:46"},"node":{"id":173,"mac":"f8d111973f3c","mac_dec":273576826978108,"fw_version":"1.0"},"node_registration":{"id":86,"latitude":50.7437,"longitude":7.09404,"name":"O.L.K.R.","operator_name":"OK-via-Rampone","operator_email":"cobfcrkh@mlowww.ab","loc_str":"Irmintrudis 6-10","osm_loc":"Irmintrudis","created_at":"2013-05-28T00:50:34+02:00","updated_at":"2013-05-28T00:50:34+02:00"}},{"vpn_status":"up","status":{"created_at":"09.08.2013 01:11"},"node":{"id":81,"mac":"f8d111975364","mac_dec":273576826983268,"fw_version":"1.0"},"node_registration":{"id":47,"latitude":50.7416,"longitude":7.08562,"name":"tsp","operator_name":"tobias","operator_email":"qlyfxpm@rkf-ylkk.ab","loc_str":"ellerstra\u00dfe 84, bonn","osm_loc":"ellerstra\u00dfe 84, bon","created_at":"2013-02-13T19:47:23+01:00","updated_at":"2013-02-13T19:49:41+01:00"}},{"vpn_status":"up","status":{"created_at":"16.08.2013 15:26"},"node":{"id":172,"mac":"6470024d52c6","mac_dec":110432237736646,"fw_version":"1.0"},"node_registration":{"id":85,"latitude":50.5387,"longitude":6.64829,"name":"n3xt","operator_name":"Christoph Stoltz","operator_email":"cobfcrkh@k3uq.ab","loc_str":"Neuer Weg 20, 53894 Mechernich","osm_loc":"Neuer Weg 20, Mechernich","created_at":"2013-05-25T12:01:06+02:00","updated_at":"2013-05-25T19:45:37+02:00"}},{"vpn_status":"up","status":{"created_at":"17.08.2013 00:32"},"node":{"id":155,"mac":"647002f879ca","mac_dec":110432248953290,"fw_version":"1.0"},"node_registration":{"id":82,"latitude":50.609,"longitude":6.6455,"name":"n1.bsn.kbu.freifunk.net","operator_name":"bsn / Geekfried","operator_email":"yglbok@kbqwxccfk.lod","loc_str":"Schopsland 9, 53894 Mechernich","osm_loc":"Schopsland 9, 53894 Mechernich","created_at":"2013-05-04T16:02:28+02:00","updated_at":"2013-05-09T20:13:26+02:00"}},{"vpn_status":"up","status":{"created_at":"08.08.2013 02:11"},"node":{"id":84,"mac":"90f6524a25b8","mac_dec":159387616945592,"fw_version":"1.1.1a-merge"},"node_registration":{"id":55,"latitude":50.7563,"longitude":7.07692,"name":"Morlock","operator_name":"Morlock","operator_email":"Trojilze1977@nrxkqbkqrkkbi.ab","loc_str":"Warschauer Stra\u00dfe, 53117 Bonn","osm_loc":"Warschauer stra\u00dfe bonn","created_at":"2013-02-21T20:00:05+01:00","updated_at":"2013-02-21T20:00:05+01:00"}},{"vpn_status":"up","status":{"created_at":"16.08.2013 04:49"},"node":{"id":153,"mac":"a0f3c13cf02e","mac_dec":176968779493422,"fw_version":"1.0"},"node_registration":{"id":81,"latitude":50.4929,"longitude":6.63176,"name":"GasthausSchruff","operator_name":"Gasthaus Schruff","operator_email":"fkcl@tyobfqyxze.ab","loc_str":"Bahnhofstra\u00dfe 4, 53947 Nettersheim","osm_loc":"Bahnhofstrasse 4, 53947 Nettersheim","created_at":"2013-05-03T13:11:17+02:00","updated_at":"2013-05-03T13:14:38+02:00"}},{"vpn_status":"up","status":{"created_at":"08.08.2013 11:56"},"node":{"id":142,"mac":"6470025c2c30","mac_dec":110432238709808,"fw_version":"1.0"},"node_registration":{"id":79,"latitude":50.7393,"longitude":7.10061,"name":"ffbn01.s01","operator_name":"Ziong","operator_email":"cc-zlkqxzq@coxdkbq.lod","loc_str":"Stiftsplatz 1,53111 Bonn","osm_loc":"Stiftsplatz 1 Bonn","created_at":"2013-04-28T17:23:28+02:00","updated_at":"2013-05-05T16:29:14+02:00"}},{"vpn_status":"up","status":{"created_at":"19.08.2013 08:32"},"node":{"id":122,"mac":"d85d4cf2c2cc","mac_dec":237895234536140,"fw_version":"1.0"},"node_registration":{"id":72,"latitude":50.9495,"longitude":6.95657,"name":"KSK","operator_name":"Jan","operator_email":"girbeo@dju.kbq","loc_str":"Kopierservice Koeln, Eigelstein 137, 50668 K\u00f6ln","osm_loc":"EIGELSTEIN 137","created_at":"2013-04-06T15:25:41+02:00","updated_at":"2013-04-06T15:25:41+02:00"}},{"vpn_status":"up","status":{"created_at":"19.08.2013 09:49"},"node":{"id":114,"mac":"a0f3c164420e","mac_dec":176968782070286,"fw_version":"1.0"},"node_registration":{"id":70,"latitude":50.9542,"longitude":6.91221,"name":"schlemihl","operator_name":"g3ntleman","operator_email":"cobfcrkh@zlzlxkrqp.lod","loc_str":"","osm_loc":"Marienstra\u00dfe 25, K\u00f6ln-Ehrenfeld","created_at":"2013-03-25T19:28:31+01:00","updated_at":"2013-05-21T11:55:21+02:00"}},{"vpn_status":"up","status":{"created_at":"06.08.2013 02:52"},"node":{"id":108,"mac":"0023cd1683b2","mac_dec":153764660146,"fw_version":"1.0"},"node_registration":{"id":69,"latitude":50.7161,"longitude":7.08636,"name":"samson","operator_name":"g3ntleman","operator_email":"cobfcrkh@zlzlxkrqp.lod","loc_str":"Trierer Str. 72, 53115 Bonn","osm_loc":"Trierer Str. 72, 53115 Bonn","created_at":"2013-03-19T18:42:27+01:00","updated_at":"2013-07-22T00:48:56+02:00"}},{"vpn_status":"up","status":{"created_at":"09.08.2013 02:47"},"node":{"id":102,"mac":"f8d111974e7a","mac_dec":273576826982010,"fw_version":"1.0"},"node_registration":{"id":66,"latitude":50.8926,"longitude":6.90925,"name":"Catherine","operator_name":"Kenjih","operator_email":"qfarp_d@elqjxfi.zlj","loc_str":"Hahnenstra\u00dfe 29","osm_loc":"Hahnenstra\u00dfe 29","created_at":"2013-03-13T20:32:01+01:00","updated_at":"2013-03-13T20:32:01+01:00"}},{"vpn_status":"up","status":{"created_at":"17.08.2013 12:21"},"node":{"id":96,"mac":"f8d1119919fe","mac_dec":273576827099646,"fw_version":"1.0"},"node_registration":{"id":61,"latitude":50.7399,"longitude":7.0968,"name":"boedefeld","operator_name":"g3ntleman","operator_email":"cobfcrkh@zlzlxkrqp.lod","loc_str":"Breitestr. 76, 53111 Bonn","osm_loc":"Breitestr. 76, 53111 Bonn","created_at":"2013-03-07T22:51:02+01:00","updated_at":"2013-06-06T23:37:26+02:00"}},{"vpn_status":"up","status":{"created_at":"18.08.2013 17:55"},"node":{"id":94,"mac":"a0f3c15b5898","mac_dec":176968781486232,"fw_version":"1.0"},"node_registration":{"id":58,"latitude":50.6614,"longitude":6.64742,"name":"m2d2","operator_name":"M.Dieter","operator_email":"fkcl@xqqfz-jbafx.ab","loc_str":"Kommerner Str., 53909 Z\u00fclpich","osm_loc":"Z\u00fclpich","created_at":"2013-03-03T19:08:39+01:00","updated_at":"2013-03-03T19:08:39+01:00"}},{"vpn_status":"up","status":{"created_at":"12.08.2013 09:52"},"node":{"id":276,"mac":"647002be4964","mac_dec":110432245139812,"fw_version":"1.0"},"node_registration":{"id":112,"latitude":50.9279,"longitude":6.86219,"name":"Neuling","operator_name":"Neuling","operator_email":"aoxcq.pxhrox@djxfi.zlj","loc_str":"St\u00fcttgerhofweg 13, 50858 K\u00f6ln","osm_loc":"St\u00fcttgerhofweg 13, 50858 K\u00f6ln","created_at":"2013-08-10T12:17:38+02:00","updated_at":"2013-08-10T12:17:38+02:00"}},{"vpn_status":"down","status":{"created_at":"12.04.2013 15:52"},"node":{"id":92,"mac":"54e6fcfac7c0","mac_dec":93351063504832,"fw_version":"1.0"},"node_registration":{"id":60,"latitude":50.9937,"longitude":7.02788,"name":"Freenet4all","operator_name":"Upload","operator_email":"rmilxaqldl@gxyybo.zzz.ab","loc_str":"K\u00fcppersteger Weg7, K\u00f6ln-H\u00f6henhaus/D\u00fcnwald","osm_loc":"K\u00fcppersteger Weg 7","created_at":"2013-03-07T22:43:45+01:00","updated_at":"2013-04-12T14:36:58+02:00"}},{"vpn_status":"down","status":{"created_at":"11.07.2013 11:56"},"node":{"id":95,"mac":"f8d1119753a2","mac_dec":273576826983330,"fw_version":"1.0"},"node_registration":{"id":59,"latitude":50.9725,"longitude":7.0785,"name":"bert","operator_name":"g3ntleman","operator_email":"cobfcrkh@zlzlxkrqp.lod","loc_str":"Gemarkenstr. / Strundener Str.","osm_loc":"Gemarkenstr","created_at":"2013-03-07T22:37:07+01:00","updated_at":"2013-07-11T12:03:21+02:00"}},{"vpn_status":"down","status":{"created_at":"19.08.2013 09:04"},"node":{"id":91,"mac":"f8d11197535c","mac_dec":273576826983260,"fw_version":"1.0"},"node_registration":{"id":74,"latitude":50.9936,"longitude":7.02788,"name":"Freenet4all2","operator_name":"Upload","operator_email":"rmilxaqldl@gxyybo.zzz.ab","loc_str":"K\u00f6ln, K\u00fcppersteger Weg 7","osm_loc":"K\u00fcppersteger Weg 7","created_at":"2013-04-12T15:37:43+02:00","updated_at":"2013-04-12T15:48:01+02:00"}},{"vpn_status":"down","status":{"created_at":"08.03.2013 21:40"},"node":{"id":98,"mac":"f8d1119753b0","mac_dec":273576826983344,"fw_version":"1.0"},"node_registration":{"id":62,"latitude":50.727,"longitude":7.07386,"name":"TESTosteron","operator_name":"Porzzzer","operator_email":"ollq@mlowww.ab","loc_str":"Endenich und hier und da","osm_loc":"Endenich","created_at":"2013-03-08T21:37:50+01:00","updated_at":"2013-04-25T00:33:29+02:00"}},{"vpn_status":"down","status":{"created_at":"12.04.2013 00:50"},"node":{"id":101,"mac":"f8d1119769fe","mac_dec":273576826989054,"fw_version":"1.0"},"node_registration":{"id":65,"latitude":50.9192,"longitude":6.94123,"name":"Kaleng-4","operator_name":"kaleng","operator_email":"hxibkd@wlel.zlj","loc_str":"H\u00f6ninger Weg 57, 50969 K\u00f6ln","osm_loc":"57, H\u00f6ninger Weg, Zollstock","created_at":"2013-03-12T23:58:01+01:00","updated_at":"2013-03-12T23:58:01+01:00"}},{"vpn_status":"down","status":{"created_at":"02.03.2013 20:54"},"node":{"id":90,"mac":"f8d111974774","mac_dec":273576826980212,"fw_version":"0.3.x-kbu"},"node_registration":{"id":57,"latitude":50.7274,"longitude":7.06905,"name":"Node","operator_name":"Emnet","operator_email":"ollq@mloww.ab","loc_str":"Endenich","osm_loc":"Endenich, Effertzstra\u00dfe 33","created_at":"2013-03-02T20:49:32+01:00","updated_at":"2013-03-02T20:49:32+01:00"}},{"vpn_status":"down","status":{"created_at":"23.04.2013 20:37"},"node":{"id":89,"mac":"f8d11197539a","mac_dec":273576826983322,"fw_version":"0.3.x-kbu"},"node_registration":{"id":54,"latitude":50.7411,"longitude":7.09086,"name":"freedanger","operator_name":"danger","operator_email":"coxd-abk@OJT-Klab-Ltk.bo","loc_str":"im krausfeld 20a, 53111 bonn","osm_loc":"im krausfeld 20a","created_at":"2013-02-20T20:53:41+01:00","updated_at":"2013-02-20T20:53:41+01:00"}},{"vpn_status":"down","status":{"created_at":"10.06.2013 20:19"},"node":{"id":88,"mac":"f8d1119753f8","mac_dec":273576826983416,"fw_version":"1.0"},"node_registration":{"id":53,"latitude":51.0715,"longitude":6.81075,"name":"marc 2","operator_name":"marc","operator_email":"i1j3o3a7bsbk@djxfi.zlj","loc_str":"Dormagen","osm_loc":"Hackenbroich","created_at":"2013-02-19T19:30:54+01:00","updated_at":"2013-02-19T19:30:54+01:00"}},{"vpn_status":"down","status":{"created_at":"05.04.2013 11:16"},"node":{"id":119,"mac":"f8d111975390","mac_dec":273576826983312,"fw_version":"1.0"},"node_registration":{"id":71,"latitude":50.7036,"longitude":7.11242,"name":"Q3","operator_name":"dschuwa","operator_email":"apzertx@djxfiALQ.zlj","loc_str":"","osm_loc":"Quirinstr. 6, 53129 Bonn","created_at":"2013-04-05T08:04:49+02:00","updated_at":"2013-04-05T08:04:49+02:00"}},{"vpn_status":"down","status":{"created_at":"13.08.2013 22:01"},"node":{"id":87,"mac":"90f6524a1cfa","mac_dec":159387616943354,"fw_version":"1.0"},"node_registration":{"id":52,"latitude":50.5265,"longitude":6.99024,"name":"acp232-ff.klenzel.net","operator_name":"Daniel","operator_email":"cc@at.zu","loc_str":"Altenahr","osm_loc":"Altenahr","created_at":"2013-02-18T17:39:06+01:00","updated_at":"2013-02-18T17:39:06+01:00"}},{"vpn_status":"down","status":{"created_at":"27.04.2013 13:40"},"node":{"id":141,"mac":"a0f3c1b99e4e","mac_dec":176968787664462,"fw_version":"1.0"},"node_registration":{"id":73,"latitude":50.7392,"longitude":7.10058,"name":"ffbn02.s01","operator_name":"Ziong","operator_email":"cc-zlkqxzq@coxdkbq.lod","loc_str":"Stiftsplatz 1,53111 Bonn","osm_loc":"Bonn","created_at":"2013-04-10T00:35:32+02:00","updated_at":"2013-05-05T16:28:55+02:00"}},{"vpn_status":"down","status":{"created_at":"14.08.2013 22:04"},"node":{"id":86,"mac":"f8d1119745a8","mac_dec":273576826979752,"fw_version":"1.0"},"node_registration":{"id":104,"latitude":null,"longitude":null,"name":"egal","operator_name":"Nikolai","operator_email":"mbqxcilm@dju.ab","loc_str":"Rheinbach","osm_loc":"Suchbegriff","created_at":"2013-07-12T19:48:20+02:00","updated_at":"2013-07-12T19:48:20+02:00"}},{"vpn_status":"down","status":{"created_at":"24.04.2013 20:34"},"node":{"id":145,"mac":"90f6524a30ee","mac_dec":159387616948462,"fw_version":"1.1.1a-merge"},"node_registration":{"id":76,"latitude":50.727,"longitude":7.07386,"name":"TESTeritis","operator_name":"Porzzzer","operator_email":"ollq@mlowww.ab","loc_str":"Bonn-Endenich","osm_loc":"Endenich","created_at":"2013-04-24T18:20:52+02:00","updated_at":"2013-04-25T00:34:25+02:00"}},{"vpn_status":"down","status":{"created_at":"17.08.2013 06:15"},"node":{"id":146,"mac":"f8d11199181c","mac_dec":273576827099164,"fw_version":"1.0"},"node_registration":{"id":77,"latitude":50.727,"longitude":7.07386,"name":"TESTat","operator_name":"Porzzzer","operator_email":"ollq@mlowww.ab","loc_str":"Bonn-Endenich","osm_loc":"Endenich","created_at":"2013-04-25T00:17:01+02:00","updated_at":"2013-04-25T00:17:01+02:00"}},{"vpn_status":"down","status":{"created_at":"25.04.2013 00:37"},"node":{"id":147,"mac":"f8d111974186","mac_dec":273576826978694,"fw_version":"1.0"},"node_registration":{"id":78,"latitude":50.727,"longitude":7.07386,"name":"TESTament","operator_name":"Porzzzer","operator_email":"ollq@mlowww.ab","loc_str":"Endenich","osm_loc":"Endenich","created_at":"2013-04-25T00:23:50+02:00","updated_at":"2013-04-25T00:23:50+02:00"}},{"vpn_status":"down","status":{"created_at":"15.08.2013 06:57"},"node":{"id":85,"mac":"f8d111975346","mac_dec":273576826983238,"fw_version":"1.0"},"node_registration":{"id":50,"latitude":50.701,"longitude":7.05776,"name":"NIKOLAI00","operator_name":"NIKOLAI","operator_email":"mbqxcilm@dju.ab","loc_str":"Von-Guericke-Allee, 53125 Bonn","osm_loc":"Von-Guericke-Allee, 53125 Bonn","created_at":"2013-02-15T17:37:39+01:00","updated_at":"2013-06-27T22:27:03+02:00"}},{"vpn_status":"down","status":{"created_at":"15.02.2013 01:11"},"node":{"id":83,"mac":"f8d111974580","mac_dec":273576826979712,"fw_version":"1.0"},"node_registration":{"id":48,"latitude":50.8937,"longitude":6.91264,"name":"Kaleng-2","operator_name":"kaleng","operator_email":"hxibkd@wlel.zlj","loc_str":"Hahnenstra\u00dfe 19-5, H\u00fcrth","osm_loc":"Hahnenstra\u00dfe 19-5","created_at":"2013-02-15T01:09:10+01:00","updated_at":"2013-03-11T18:19:02+01:00"}},{"vpn_status":"down","status":{"created_at":"21.07.2013 19:50"},"node":{"id":165,"mac":"a0f3c1967a8a","mac_dec":176968785361546,"fw_version":"1.0"},"node_registration":{"id":83,"latitude":50.609,"longitude":6.64552,"name":"n2.bsn.kbu.freifunk.net","operator_name":"bsn / Geekfried","operator_email":"yglbok@kbqwxccfk.lod","loc_str":"Schopsland 9, 53894 Mechernich","osm_loc":"Schopsland 9, 53894","created_at":"2013-05-09T20:37:05+02:00","updated_at":"2013-05-09T20:37:05+02:00"}},{"vpn_status":"down","status":{"created_at":"12.08.2013 23:10"},"node":{"id":170,"mac":"f8d111991822","mac_dec":273576827099170,"fw_version":"1.1.1a-merge"},"node_registration":{"id":84,"latitude":50.7395,"longitude":7.09247,"name":"qwertz","operator_name":"asdfgh","operator_email":"vuzsyk@kj.ab","loc_str":"Heerstrasse","osm_loc":"Heerstrasse, bonn","created_at":"2013-05-20T20:59:46+02:00","updated_at":"2013-05-20T21:04:28+02:00"}},{"vpn_status":"down","status":{"created_at":"18.08.2013 14:50"},"node":{"id":82,"mac":"90f6524a1d02","mac_dec":159387616943362,"fw_version":"1.0"},"node_registration":{"id":49,"latitude":50.8937,"longitude":6.91244,"name":"kaleng-3","operator_name":"kaleng","operator_email":"hxibkd@wlel.zlj","loc_str":"Hahnenstra\u00dfe 19, H\u00fcrth","osm_loc":"Hahnenstra\u00dfe 19-5","created_at":"2013-02-15T01:12:14+01:00","updated_at":"2013-07-11T23:56:05+02:00"}},{"vpn_status":"down","status":{"created_at":"01.08.2013 18:48"},"node":{"id":80,"mac":"f8d111975360","mac_dec":273576826983264,"fw_version":"1.0"},"node_registration":{"id":109,"latitude":50.7396,"longitude":7.0893,"name":"unused-2","operator_name":"Die Linke, Gesch\u00e4ftsstelle Bonn","operator_email":"cobfcrkh@zlzlxkrqp.lod","loc_str":"Vorgebirgsstra\u00dfe, bonn","osm_loc":"Vorgebirgsstr., bonn","created_at":"2013-08-08T02:52:10+02:00","updated_at":"2013-08-14T16:30:52+02:00"}},{"vpn_status":"down","status":{"created_at":"26.02.2013 15:02"},"node":{"id":77,"mac":"b0487acb2d58","mac_dec":193825344269656,"fw_version":"2013-02-14_10-09-15-continuous"},"node_registration":{"id":44,"latitude":51.01,"longitude":6.89378,"name":"Jan-1","operator_name":"Jan","operator_email":"cc@pqbmexk.eljbrkfu.kbq","loc_str":"Stallagsweg 107, 50767 K\u00f6ln","osm_loc":"Stallagsweg 107","created_at":"2013-02-11T23:33:56+01:00","updated_at":"2013-02-11T23:33:56+01:00"}},{"vpn_status":"down","status":{"created_at":"05.08.2013 15:40"},"node":{"id":60,"mac":"b0487aa59614","mac_dec":193825341806100,"fw_version":"1.0"},"node_registration":{"id":39,"latitude":50.4749,"longitude":6.57686,"name":"egeist-02","operator_name":"eGeist","operator_email":"bdbfpq@zboybolk.kbq","loc_str":"","osm_loc":"","created_at":"2013-01-21T00:25:14+01:00","updated_at":"2013-08-07T18:54:08+02:00"}},{"vpn_status":"down","status":{"created_at":"02.04.2013 14:06"},"node":{"id":50,"mac":"f8d1118022f2","mac_dec":273576825463538,"fw_version":"0.3.x-kbu"},"node_registration":{"id":41,"latitude":50.727,"longitude":7.07386,"name":"RMW2 - KitchenNode","operator_name":"RMW","operator_email":"ollq@mlowww.ab","loc_str":"Bonn-Endenich","osm_loc":"","created_at":"2013-01-24T02:37:52+01:00","updated_at":"2013-04-24T18:21:11+02:00"}},{"vpn_status":"down","status":{"created_at":"18.02.2013 00:58"},"node":{"id":47,"mac":"f4ec38e97444","mac_dec":269295404282948,"fw_version":"< 1.0"},"node_registration":{"id":31,"latitude":50.9022,"longitude":6.93457,"name":"bjiveT-01","operator_name":"bjiveT","operator_email":"ygfsbQ@djxfi.zlj","loc_str":"Kendenicher Str., 50969 K\u00f6ln","osm_loc":"Kendenicher Str., 50969 K\u00f6ln","created_at":"2013-01-03T23:29:14+01:00","updated_at":"2013-01-03T23:29:14+01:00"}},{"vpn_status":"down","status":{"created_at":"08.05.2013 15:20"},"node":{"id":46,"mac":"f8d111a9cee4","mac_dec":273576828194532,"fw_version":"1.0"},"node_registration":{"id":30,"latitude":50.7373,"longitude":7.08395,"name":"E19","operator_name":"Fabian K\u00f6ster","operator_email":"cobfcrkh@ptfcq-jxfi.zlj","loc_str":"Eifelstra\u00dfe 19, 53119 Bonn","osm_loc":"Eifelstra\u00dfe 19, 53119 Bonn","created_at":"2013-01-03T19:16:41+01:00","updated_at":"2013-01-03T19:16:41+01:00"}},{"vpn_status":"down","status":{"created_at":"09.07.2013 23:16"},"node":{"id":186,"mac":"f8d1119753c2","mac_dec":273576826983362,"fw_version":"1.1.1a-merge"},"node_registration":{"id":97,"latitude":50.7278,"longitude":7.06856,"name":"PleaseWifiDoNotHang(branch)","operator_name":"PrettyFlyForAWiFi","operator_email":"tfbtxp@txo.ax","loc_str":";)","osm_loc":"babette-koch-weg","created_at":"2013-07-09T22:07:05+02:00","updated_at":"2013-07-09T23:14:24+02:00"}},{"vpn_status":"down","status":{"created_at":"11.07.2013 15:42"},"node":{"id":188,"mac":"f8d111902614","mac_dec":273576826512916,"fw_version":"1.0"},"node_registration":{"id":96,"latitude":null,"longitude":null,"name":"KBU-Testufo von FFOL","operator_name":"Bjoern","operator_email":"yglbok@cobfcrkh-li.ab","loc_str":"","osm_loc":"Auf dem H\u00fcgel","created_at":"2013-07-09T19:53:13+02:00","updated_at":"2013-07-10T18:13:04+02:00"}},{"vpn_status":"down","status":{"created_at":"17.08.2013 06:16"},"node":{"id":34,"mac":"f8d1112475fc","mac_dec":273576819455484,"fw_version":"1.1.1a-merge"},"node_registration":{"id":42,"latitude":50.727,"longitude":7.07386,"name":"RMW1","operator_name":"RMW","operator_email":"ollq@mlowww.ab","loc_str":"Bonn-Endenich","osm_loc":"Endenich, ","created_at":"2013-01-25T23:10:54+01:00","updated_at":"2013-02-13T02:01:33+01:00"}},{"vpn_status":"down","status":{"created_at":"23.07.2013 21:22"},"node":{"id":31,"mac":"f8d1113aadea","mac_dec":273576820911594,"fw_version":"1.0"},"node_registration":{"id":20,"latitude":50.7036,"longitude":7.11233,"name":"Q2","operator_name":"dschuwa","operator_email":"apzertx@djxfiALQ.zlj","loc_str":"Quirinstr. 6","osm_loc":"Quirinstr. 6","created_at":"2012-09-13T20:45:17+02:00","updated_at":"2013-01-02T19:16:48+01:00"}},{"vpn_status":"down","status":{"created_at":"10.07.2013 00:14"},"node":{"id":192,"mac":"f8d1119769f8","mac_dec":273576826989048,"fw_version":"1.1.1a-merge"},"node_registration":{"id":98,"latitude":50.728,"longitude":7.06865,"name":"TESTarossa (branch)","operator_name":"4 Gumminoppen stellen den auf","operator_email":"tbotfbtxp@jb.ab","loc_str":"Endenich","osm_loc":"","created_at":"2013-07-09T23:22:08+02:00","updated_at":"2013-07-09T23:22:08+02:00"}},{"vpn_status":"down","status":{"created_at":"10.07.2013 23:26"},"node":{"id":193,"mac":"a0f3c1366c04","mac_dec":176968779066372,"fw_version":"1.0"},"node_registration":{"id":99,"latitude":50.7411,"longitude":7.08869,"name":"oscar","operator_name":"g3ntleman","operator_email":"cobfcrkh@zlzlxkrqp.lod","loc_str":"Kaiser-Karl-Ring / Dorotheenstr.","osm_loc":"Kaiser-Karl-Ring","created_at":"2013-07-10T20:06:22+02:00","updated_at":"2013-07-15T02:26:14+02:00"}},{"vpn_status":"down","status":{"created_at":"02.02.2013 21:15"},"node":{"id":24,"mac":"f8d111b74bfe","mac_dec":273576829078526,"fw_version":"< 1.0"},"node_registration":{"id":15,"latitude":50.7478,"longitude":7.09803,"name":"Alex-1","operator_name":"Alex","operator_email":"sbdxibu@ofpbrm.kbq","loc_str":"Eintrachtstr. Bonn","osm_loc":"Eintrachtstr. Bonn","created_at":"2012-06-25T15:04:47+02:00","updated_at":"2012-07-29T18:12:29+02:00"}},{"vpn_status":"down","status":{"created_at":"11.07.2013 18:12"},"node":{"id":196,"mac":"647002b5134a","mac_dec":110432244536138,"fw_version":"1.0"},"node_registration":{"id":101,"latitude":50.7277,"longitude":7.06816,"name":"Blubberlutsch (branch)","operator_name":"Blubberlutscher","operator_email":"xqfpq92@ifsb.ab","loc_str":"Endenich","osm_loc":"Babette-Koch-Weg","created_at":"2013-07-11T18:09:07+02:00","updated_at":"2013-07-11T18:09:07+02:00"}},{"vpn_status":"down","status":{"created_at":"12.07.2013 03:13"},"node":{"id":197,"mac":"f8d111975454","mac_dec":273576826983508,"fw_version":"1.0"},"node_registration":{"id":103,"latitude":50.7411,"longitude":7.09166,"name":"A80","operator_name":"ScottyTM","operator_email":"x80-hyr.cobfcrkh.kbq@42e.ab","loc_str":"Adolfstr. 80, 53111 Bonn","osm_loc":"Adolfstr. 80, 53111 Bonn","created_at":"2013-07-11T23:34:44+02:00","updated_at":"2013-07-11T23:35:31+02:00"}},{"vpn_status":"down","status":{"created_at":"12.07.2013 00:21"},"node":{"id":198,"mac":"a0f3c1fa556e","mac_dec":176968791905646,"fw_version":"1.0"},"node_registration":{"id":102,"latitude":50.9152,"longitude":6.70911,"name":"n2.utzer.kbu.freifunk.net","operator_name":"utzer","operator_email":"exy@fze.kbq","loc_str":"Rathausstrasse 1, 50169 Kerpen","osm_loc":"Rathausstrasse 1, 50169 Kerpen","created_at":"2013-07-11T23:20:02+02:00","updated_at":"2013-07-18T19:40:16+02:00"}},{"vpn_status":"down","status":{"created_at":"18.07.2013 20:09"},"node":{"id":199,"mac":"f81a67f93c8c","mac_dec":272792297225356,"fw_version":"1.0"},"node_registration":{"id":105,"latitude":50.9153,"longitude":6.70884,"name":"n3.utzer.kbu.freifunk.net","operator_name":"utzer","operator_email":"exy@fze.kbq","loc_str":"","osm_loc":"rathausstr. 1, kerpen","created_at":"2013-07-18T20:00:42+02:00","updated_at":"2013-07-18T20:00:42+02:00"}},{"vpn_status":"down","status":{"created_at":"26.07.2013 12:04"},"node":{"id":200,"mac":"647002b3c4e8","mac_dec":110432244450536,"fw_version":"1.0"},"node_registration":{"id":113,"latitude":50.7222,"longitude":7.08852,"name":"extra-high","operator_name":"Extra Dry, Bonn-Poppelsdorf","operator_email":"cobfcrkh@zlzlxkrqp.lod","loc_str":"Extra-Dry, Clemens-August-Str. 46","osm_loc":"Clemens-August-Str. 46","created_at":"2013-08-16T18:56:22+02:00","updated_at":"2013-08-17T11:51:45+02:00"}},{"vpn_status":"down","status":{"created_at":"28.02.2013 23:59"},"node":{"id":23,"mac":"f4ec389d7dc2","mac_dec":269295399304642,"fw_version":"1.0"},"node_registration":{"id":13,"latitude":50.9956,"longitude":7.02981,"name":"SN 1","operator_name":"wingfire","operator_email":"kl@jxfi.lod","loc_str":"Hadwigastra\u00dfe, 51069 K\u00f6ln","osm_loc":"Hadwigastra\u00dfe 39, 51069 K\u00f6ln","created_at":"2012-06-12T12:17:10+02:00","updated_at":"2013-02-28T23:29:50+01:00"}},{"vpn_status":"down","status":{"created_at":"04.08.2013 23:46"},"node":{"id":202,"mac":"f8d111973638","mac_dec":273576826975800,"fw_version":"1.0"},"node_registration":{"id":107,"latitude":50.8684,"longitude":7.047,"name":"magische Sonne","operator_name":"DP via Rampone","operator_email":"jb@mlowww.ab","loc_str":"Porz Z\u00fcndorf","osm_loc":"schmittgasse","created_at":"2013-07-22T21:15:47+02:00","updated_at":"2013-07-22T21:15:47+02:00"}},{"vpn_status":"down","status":{"created_at":"29.03.2013 19:23"},"node":{"id":19,"mac":"f4ec38e97234","mac_dec":269295404282420,"fw_version":"2013-03-17_13-56-42-continuous"},"node_registration":{"id":68,"latitude":51.0099,"longitude":6.89336,"name":"Jan-2","operator_name":"Jan","operator_email":"vxklpw@dju.kbq","loc_str":"Stallagsweg 107","osm_loc":"Stallagsweg 107, K\u00f6ln","created_at":"2013-03-19T13:21:30+01:00","updated_at":"2013-03-19T13:21:30+01:00"}},{"vpn_status":"down","status":{"created_at":"17.01.2013 20:51"},"node":{"id":13,"mac":"b0487ac5de28","mac_dec":193825343921704,"fw_version":"1.0"},"node_registration":{"id":3,"latitude":50.9504,"longitude":6.91296,"name":"C4-2","operator_name":"Freifunk-KBU Team","operator_email":"fkcl@hyr.cobfcrkh.kbq","loc_str":"Chaos Computer Club Cologne, 6a, Heliosstra\u00dfe, Ehrenfeld, K\u00f6ln, Regierungsbezirk K\u00f6ln, Nordrhein-Westfalen, 50825, Deutschland","osm_loc":"Chaos Computer Club Cologne, 6a, Heliosstra\u00dfe, Ehrenfeld, K\u00f6ln, Regierungsbezirk K\u00f6ln, Nordrhein-Westfalen, 50825, Deutschland","created_at":"2012-05-30T14:52:34+02:00","updated_at":"2012-05-30T15:02:12+02:00"}},{"vpn_status":"down","status":{"created_at":"08.08.2013 15:44"},"node":{"id":264,"mac":"6470025c274e","mac_dec":110432238708558,"fw_version":"1.0"},"node_registration":{"id":110,"latitude":51.4279,"longitude":8.27868,"name":"Unused-1","operator_name":"g3ntleman","operator_email":"cobfcrkh@zlzlxkrqp.lod","loc_str":"","osm_loc":"Clemens-August-Str. ","created_at":"2013-08-08T03:04:00+02:00","updated_at":"2013-08-14T16:13:05+02:00"}},{"vpn_status":"down","status":{"created_at":"16.06.2013 14:56"},"node":{"id":176,"mac":"6470028516b6","mac_dec":110432241391286,"fw_version":"1.0"},"node_registration":{"id":88,"latitude":50.9627,"longitude":6.94387,"name":"freifunk-stw60-node5","operator_name":"asystec IT-Beratung / Nachbarn60 e. V.","operator_email":"cobfcrkh@xpvpqbz.kbq","loc_str":"Stellwerk 60, Autofreie Siedlung, K\u00f6ln-Nippes","osm_loc":"Stellwerk 60, Autofreie Siedlung, K\u00f6ln-Nippes","created_at":"2013-06-14T20:00:43+02:00","updated_at":"2013-06-14T20:04:45+02:00"}}]